City_ID,City,Country,Max Temp,Current Description,Lat,Lng,Hotel Name
0,Ponta Do Sol,PT,72.23,clear sky,32.67,-17.1,Hotel do Campo
2,Avarua,CK,73.45,overcast clouds,-21.21,-159.78,Paradise Inn
3,Pangkalanbuun,ID,72.77,overcast clouds,-2.68,111.62,Grand Kecubung Hotel
4,Fort Nelson,CA,67.62,light rain,58.81,-122.7,The Fort Nelson Hotel
5,Morondava,MG,71.89,clear sky,-20.28,44.28,La Case Bambou
8,Castro,BR,66.87,overcast clouds,-24.79,-50.01,CHACARA BAILLY
11,Salisbury,GB,68.45,broken clouds,51.07,-1.8,Mercure Salisbury White Hart Hotel
12,Novorudnyy,RU,65.19,broken clouds,51.5,58.19,Novorudnyi
13,Ambilobe,MG,65.35,few clouds,-13.2,49.05,Hôtel & Restaurant DIANA Ambilobe
14,Saint-Philippe,RE,69.39,light rain,-21.36,55.77,Le four à pain
16,Arshan,RU,62.98,scattered clouds,46.27,44.22,Guest House The Green Village
21,Dudinka,RU,67.62,broken clouds,69.41,86.18,Hotel Viktoria
28,Maamba,ZM,63.21,clear sky,-17.37,27.15,
29,Lata,PT,67.84,clear sky,40.16,-8.33,Casa Maquia
33,Villablino,ES,64.83,clear sky,42.94,-6.32,Hotel La Brañina
34,Hovd,MN,60.01,clear sky,48.01,91.64,Hotel Khovd
35,Rikitea,PF,72.25,clear sky,-23.12,-134.97,People ThankYou
37,Pacific Grove,US,67.01,scattered clouds,36.62,-121.92,Lovers Point Inn
39,Xichang,CN,62.67,overcast clouds,27.9,102.26,Xichang ibis Hotel
42,Cidreira,BR,63.21,scattered clouds,-30.18,-50.21,Hotel Castelo
45,Chuy,UY,63.05,broken clouds,-33.7,-53.46,Nuevo Hotel Plaza
46,Vaini,TO,71.58,overcast clouds,-21.2,-175.2,Keleti Beach Resort
49,Mutsu,JP,67.68,light rain,41.29,141.22,Mutsu Park Hotel
50,Ponta Delgada,PT,72.32,broken clouds,37.73,-25.67,Vila Nova Hotel
54,Sechura,PE,73.78,few clouds,-5.56,-80.82,Hospedaje Costa Bella
60,Nhulunbuy,AU,66.81,overcast clouds,-12.23,136.77,East Arnhem Real Estate
63,San Quintin,MX,71.92,scattered clouds,30.48,-115.95,Don Eddie's Sport Fishing Center
67,Sestroretsk,RU,68.14,clear sky,60.1,29.96,"Zagorodnyy Klub ""Skandinaviya"" I Spa"
72,Arraial Do Cabo,BR,72.46,clear sky,-22.97,-42.03,Pousada Porto Praia
85,Tura,IN,74.07,moderate rain,25.52,90.22,Hotel RIKMAN Continental
88,Yellowknife,CA,68.56,broken clouds,62.46,-114.35,The Explorer Hotel
89,Namibe,AO,63.91,broken clouds,-15.2,12.15,Hotel Chik Chik Namibe
97,Nikolskoye,RU,67.91,few clouds,59.7,30.79,Tourist House - Sablino
100,Margate,GB,70.7,overcast clouds,51.38,1.39,Premier Inn Margate hotel
105,Ippy,CF,67.26,broken clouds,6.27,21.22,
106,Berdychiv,UA,67.46,clear sky,49.9,28.6,Кафе-готель Домашні страви
108,Northam,GB,66.38,overcast clouds,51.03,-4.22,Durrant House Hotel
109,Gondanglegi,ID,72.81,overcast clouds,-7.75,112.01,Hotel Mitra Inn
110,Bitam,GA,67.95,overcast clouds,2.08,11.5,Hôtel ROYAL
115,Buin,CL,72.43,scattered clouds,-33.73,-70.75,Paihuen
116,Quatre Cocos,MU,70.09,light rain,-20.21,57.76,Sunrise Attitude Hotel
121,Tsogni,GA,68.18,overcast clouds,-2.79,10.1,
124,Piterka,RU,66.54,overcast clouds,50.68,47.45,
126,Bambous Virieux,MU,70.16,scattered clouds,-20.34,57.76,Casa Tia Villa
127,Nagutskoye,RU,64.62,broken clouds,44.44,42.88,
129,San Jeronimo,PE,65.68,overcast clouds,-11.95,-75.28,Tuki Llajta Pueblo Bonito Eco Lodge
130,Thompson,CA,64.56,broken clouds,55.74,-97.86,Burntwood Hotel
135,Nampula,MZ,67.95,few clouds,-15.12,39.27,Tacab Residencial
139,Mahebourg,MU,70.25,scattered clouds,-20.41,57.7,Shandrani Beachcomber Resort & Spa
140,Vrangel,RU,62.85,overcast clouds,42.73,133.08,"Отель ""БАЛИ"""
141,Domoni,KM,74.3,broken clouds,-12.26,44.53,Loulou
143,Alyangula,AU,65.41,few clouds,-13.85,136.42,Groote Eylandt Lodge
146,Marawi,PH,69.1,light rain,8.0,124.29,Derogongan Residence
153,Loubomo,CG,71.1,overcast clouds,-4.2,12.67,La Dolisienne
154,Vila Franca Do Campo,PT,72.01,overcast clouds,37.72,-25.43,Pestana Bahia Praia
156,Diego De Almagro,CL,70.03,few clouds,-26.37,-70.05,hotel luna del desierto
159,Aksay,RU,70.25,clear sky,47.26,39.87,Chernaya Zhemchuzhina
160,Hearst,CA,71.85,overcast clouds,49.68,-83.67,Companion
165,Zaozerne,UA,71.31,clear sky,45.16,33.28,"Molodozhnyy Lager' ""Pioner"""
168,Souillac,MU,70.18,scattered clouds,-20.52,57.52,Bils' Villa
171,Sambava,MG,67.78,broken clouds,-14.27,50.17,Melrose
173,Nakamura,JP,71.69,overcast clouds,32.98,132.93,Hotel Crown Hills Nakamura
186,Lasa,IT,68.88,overcast clouds,46.62,10.7,Pension Feldgärtenhof
187,Vicuna,CL,68.47,clear sky,-30.03,-70.71,Los Mosaicos
191,Villefranche-De-Rouergue,FR,74.17,clear sky,44.33,2.0,Logis Hôtel les Fleurines
195,Vysotsk,RU,63.64,scattered clouds,60.63,28.57,"Country Club ""Fir"""
202,Gannan,CN,65.59,overcast clouds,47.91,123.5,Gannan Supply and Marketing Cooperatives Hostel
203,Baneh,IR,67.12,clear sky,36.0,45.89,ساختمان زیتون
211,Pakxe,LA,73.72,light rain,15.12,105.78,Champasak Palace Hotel
215,Velsk,RU,65.32,clear sky,61.07,42.1,Zhemchuzhina Severa
216,Norman Wells,CA,60.96,light rain,65.28,-126.83,Heritage Hotel
218,San Martin,AR,72.14,clear sky,-33.08,-68.47,Finca Vivencias
221,Taltal,CL,61.92,scattered clouds,-25.4,-70.48,Residencial Karime
227,Carnarvon,AU,66.69,broken clouds,-24.87,113.63,Hospitality Carnarvon
229,Kincardine,GB,68.27,overcast clouds,56.07,-3.72,Premier Inn Falkirk North hotel
232,Tandil,AR,60.13,overcast clouds,-37.32,-59.13,Hostal de la Sierra Tandil
234,Komsomolets,KZ,65.98,scattered clouds,53.75,62.07,Avtostoyanka
235,Glushkovo,RU,65.3,scattered clouds,51.34,34.63,
239,Zambezi,ZM,65.79,broken clouds,-13.54,23.1,Royal Kutachika Lodge
240,Port Hardy,CA,60.8,few clouds,50.7,-127.42,Airport Inn-Port Hardy
242,Imbituba,BR,66.09,clear sky,-28.24,-48.67,Praia Hotel Imbituba
246,Rey Bouba,CM,72.54,overcast clouds,8.67,14.18,
249,Haflong,IN,72.48,light rain,25.18,93.03,Ngahsy te in
250,Jumla,NP,63.27,light rain,29.27,82.18,Hotel Sundar Rara Karnali
252,Fairbanks,US,62.22,clear sky,64.84,-147.72,Westmark Fairbanks Hotel & Conference Center
256,Astana,KZ,61.07,few clouds,51.18,71.45,King Hotel Astana
264,Scarborough,GB,71.17,overcast clouds,54.28,-0.4,The Grand Hotel Scarborough
267,Shimoda,JP,74.1,overcast clouds,34.67,138.95,Shimoda Tokyu Hotel
269,Nemuro,JP,60.06,overcast clouds,43.32,145.57,Hotel Nemuro Kaiyoutei
273,Ust-Kuyga,RU,61.47,scattered clouds,70.02,135.6,
277,Newala,TZ,60.57,few clouds,-10.94,39.28,Country Lodge
278,College,US,62.2,scattered clouds,64.86,-147.8,Pike's Waterfront Lodge
284,Winchester,GB,69.3,few clouds,51.07,-1.32,Lainston House
286,Lima,PE,62.85,scattered clouds,-12.04,-77.03,Gran Hotel Bolivar Lima
294,Chilca,PE,62.53,scattered clouds,-12.52,-76.74,Playa Punta Yaya - Las Salinas
297,Pringsewu,ID,72.39,broken clouds,-5.36,104.97,Urban Style by Front One
304,Eugene,US,72.82,scattered clouds,44.05,-123.09,Valley River Inn
306,Millet,CA,74.23,scattered clouds,53.1,-113.47,Millet Village Trailer Park
308,Nokaneng,BW,66.31,few clouds,-19.67,22.27,
310,Abha,SA,66.02,scattered clouds,18.22,42.51,Abha Hotel
312,Karratha,AU,62.11,clear sky,-20.74,116.85,ibis Styles Karratha
314,Den Helder,NL,67.98,few clouds,52.96,4.76,Hotel Den Helder
315,Arbazh,RU,65.46,scattered clouds,57.68,48.31,
319,Hualmay,PE,65.97,few clouds,-11.1,-77.61,Hotel Restaurant Turístico Casablanca
323,Saint Anthony,US,73.15,overcast clouds,45.02,-93.22,"Holiday Inn Express Roseville-St. Paul, an IHG Hotel"
340,Sioux Lookout,CA,73.47,overcast clouds,50.1,-91.92,Knobby's Fly-In Camps
343,Batetskiy,RU,64.31,scattered clouds,58.65,30.3,
346,Belmonte,BR,72.79,clear sky,-15.86,-38.88,Pousada Monte Carmelo O Pão
347,Hasaki,JP,72.28,overcast clouds,35.73,140.83,Inubosaki Kanko Hotel
349,Entre Rios,BR,73.51,broken clouds,-11.94,-38.08,Pousada Porteira
354,Grand Gaube,MU,70.38,broken clouds,-20.01,57.66,Veranda Paul et Virginie Hotel & Spa
356,Nyurba,RU,61.11,clear sky,63.28,118.33,"Гостиница ""Comfort"""
359,Myitkyina,MM,74.19,broken clouds,25.38,97.4,Shwe Phyu Hotel
360,Chara,RU,62.76,few clouds,56.91,118.26,
361,Alofi,NU,71.49,overcast clouds,-19.06,-169.92,Taloa Heights
363,Caravelas,BR,73.15,clear sky,-17.71,-39.25,Pousada dos Navegantes
365,Harbour Breton,CA,62.65,overcast clouds,47.48,-55.8,Southern Port Hotel
371,Boden,SE,66.2,scattered clouds,65.83,21.69,Quality Hotel Bodensia
377,Maizuru,JP,68.74,overcast clouds,35.45,135.33,Maizuru Grand Hotel
382,Pisco,PE,60.85,mist,-13.7,-76.22,Hotel San Isidro Oficial
383,Janovice Nad Uhlavou,CZ,73.71,overcast clouds,49.35,13.22,Penzion Jelenka Ubytování Janovice nad Úhlavou
385,Jinzhou,CN,65.97,clear sky,41.11,121.14,Sheraton Jinzhou Hotel
387,Yaan,NG,70.34,overcast clouds,7.38,8.57,
390,Rocha,UY,65.44,overcast clouds,-34.48,-54.33,Hotel Arrarte
391,Shemursha,RU,66.47,broken clouds,54.89,47.52,"Gostinitsa ""Shemursha"""
392,Saint-Augustin,CA,63.09,overcast clouds,51.23,-58.65,
393,Saint-Pierre,RE,69.48,overcast clouds,-21.34,55.48,Alize Plage
394,Krizevci,HR,72.61,few clouds,46.02,16.54,Koristan Kod d.o.o.
400,Malanje,AO,72.86,scattered clouds,-9.54,16.34,Hotel Ginga
401,Verkhovazhye,RU,64.87,few clouds,60.75,42.05,Guest house Uyut on Gagarina 4А
407,Virtsu,EE,64.58,broken clouds,58.57,23.51,Viirelaiu Lighthouse Guesthouse
409,Neiafu,TO,74.08,broken clouds,-18.65,-173.98,Mystic Sands Beachfront Accommodation
416,Kushima,JP,73.74,overcast clouds,31.46,131.23,Hanaoka
422,Camabatela,AO,69.53,overcast clouds,-8.19,15.38,Comércio e Prestação de Serviços
423,Bosobolo,CD,70.74,broken clouds,4.18,19.9,
424,Santa Vitoria Do Palmar,BR,62.6,broken clouds,-33.52,-53.37,Hostel Comodoro
427,Mujiayingzi,CN,62.71,clear sky,42.12,118.78,Jinjiang Hotel
430,Aykhal,RU,60.28,broken clouds,66.0,111.5,
431,Fortuna,US,62.98,scattered clouds,40.6,-124.16,Super 8 by Wyndham Fortuna
432,Tintigny,BE,72.61,broken clouds,49.68,5.51,Gauthier / Stany
434,Camana,PE,63.21,broken clouds,-16.62,-72.71,Hostal Morales
435,Ljungby,SE,62.17,overcast clouds,56.83,13.94,Hotel Terraza
437,Moron,AR,62.49,broken clouds,-34.65,-58.62,Hotel Morón
438,Kunming,CN,64.33,few clouds,25.04,102.72,昆明佳华广场酒店
440,Huarmey,PE,66.33,scattered clouds,-10.07,-78.15,Hotel Miramar
455,Langres,FR,71.19,broken clouds,47.83,5.33,Le Belvédère des Remparts
462,Kamphaeng Phet,TH,74.75,overcast clouds,16.25,99.5,ฟาร์มแพะ หนองผักหนาม
465,Pandharpur,IN,74.77,overcast clouds,17.67,75.33,Hotel Vitthal Inn Pandharpur
466,Shizunai,JP,66.87,overcast clouds,42.33,142.37,Shizunai Eclipse Hotel
470,Pustoshka,RU,64.36,broken clouds,56.34,29.37,Yubileinaya Hotel
472,Baruun-Urt,MN,64.56,light rain,46.68,113.28,Ахмадын амралт сувилал
473,Mattru,SL,74.7,overcast clouds,7.62,-11.83,"Mondkor Town, Bagbo Chiefdom, Bo District"
477,Igunga,TZ,69.39,few clouds,-4.28,33.88,Ally yesu shop
484,Pyinmana,MM,74.21,overcast clouds,19.73,96.22,Anh Mai Daung
488,Canakkale,TR,70.36,clear sky,40.08,26.83,
490,Nabire,ID,74.19,overcast clouds,-3.37,135.48,Hotel Nusantara I
493,Tayu,ID,74.97,broken clouds,-6.54,111.05,Toko pakaian bu is Tayu
497,Traismauer,AT,74.57,overcast clouds,48.35,15.76,Michaela Neuhold
501,Celano,IT,74.61,clear sky,42.09,13.54,Lory
506,Mbekenyera,TZ,65.44,clear sky,-10.0,38.98,
509,Bongandanga,CD,70.09,light rain,1.5,21.05,
517,Glasgow,GB,67.19,overcast clouds,55.87,-4.26,Glasgow Marriott Hotel
518,Djambala,CG,72.14,broken clouds,-2.54,14.75,Auberge Chez Les Emmanuelles
519,Khandyga,RU,62.64,clear sky,62.67,135.6,Apel'sin
525,Diemen,NL,71.92,clear sky,52.34,4.97,The Manor Amsterdam
526,Vila Velha,BR,74.28,clear sky,-20.33,-40.29,Hotel Vitória Palace
528,Livingston,GB,61.18,overcast clouds,55.9,-3.52,Mercure Livingston Hotel
529,Tommot,RU,67.41,light rain,58.96,126.29,Gostinitsa Tommot
534,San Rafael,AR,70.48,scattered clouds,-34.62,-68.33,Hotel San Rafael
536,Landerneau,FR,70.52,clear sky,48.45,-4.25,Le Clos Du Pontic
538,Oschatz,DE,70.92,scattered clouds,51.3,13.12,Hotel Gasthaus Zum Schwan
539,Obo,CF,68.14,moderate rain,5.4,26.49,
541,Haines Junction,CA,62.55,overcast clouds,60.75,-137.51,Parkside Inn
542,High Level,CA,73.51,broken clouds,58.52,-117.14,Days Inn by Wyndham High Level
544,Joshimath,IN,71.6,overcast clouds,30.57,79.57,Shivalik Camps & Resort
552,Ebbw Vale,GB,65.12,light rain,51.78,-3.21,Premier Inn Ebbw Vale hotel
553,Kropotkin,RU,65.41,broken clouds,45.44,40.58,Hotel Europe Kropotkin
562,Moyale,KE,70.14,overcast clouds,3.52,39.06,Latahzan guest house
566,Guiglo,CI,71.08,overcast clouds,6.55,-7.5,domicile de boubé TTK
569,Nara,JP,73.49,overcast clouds,34.69,135.8,Hotel Nikko Nara
571,Requena,ES,73.8,clear sky,39.49,-1.1,Hotel Avenida
572,Vao,NC,74.17,overcast clouds,-22.67,167.48,Hotel Kou-Bugny
573,Zhezkazgan,KZ,73.99,clear sky,47.8,67.71,Hotel Zumrat
574,Kupang,ID,69.01,broken clouds,-10.17,123.58,Sylvia Hotel Premier Kupang
579,Liverpool,GB,65.14,overcast clouds,53.41,-2.98,Premier Inn Liverpool City Centre (Moorfields) hotel
580,Richards Bay,ZA,70.68,broken clouds,-28.78,32.04,BON Hotel Waterfront Richards Bay
583,Juegang,CN,72.73,scattered clouds,32.32,121.19,Rudong Y Hotel
584,Moerai,PF,74.5,light rain,-22.43,-151.33,Le Manotel
587,Mbalmayo,CM,67.3,overcast clouds,3.52,11.5,Motel La Reférence
591,Octeville,FR,64.89,broken clouds,49.63,-1.64,Hôtel Le Louvre Cherbourg
596,Seoul,KR,71.78,overcast clouds,37.57,126.98,LOTTE HOTEL SEOUL
598,Kysyl-Syr,RU,60.37,clear sky,63.9,122.76,
599,Maputo,MZ,69.48,scattered clouds,-25.97,32.59,Pestana Rovuma
601,Jalingo,NG,71.96,overcast clouds,8.88,11.37,Debright Motel
602,Svetlyy,RU,61.23,overcast clouds,54.67,20.13,"Gostinitsa-Kafe, Alena"
603,Horadiz,AZ,74.17,clear sky,39.45,47.34,Evim Hotel
605,Diebougou,BF,74.14,overcast clouds,10.97,-3.25,Hotel Le Consulat
606,Talnakh,RU,67.21,overcast clouds,69.49,88.4,Talnakh Hotel
608,Galesong,ID,71.62,few clouds,-5.32,119.37,Sapriadi Appy
611,Shingu,JP,72.93,overcast clouds,33.73,135.98,Shingu UI Hotel
612,Capao Da Canoa,BR,63.45,scattered clouds,-29.75,-50.01,Hotel Araçá
613,Whitehorse,CA,64.09,broken clouds,60.72,-135.05,The Sternwheeler Hotel & Conference Centre
614,Grand Baie,MU,70.45,scattered clouds,-20.02,57.58,Trou aux Biches Beachcomber Golf Resort & Spa
618,Saint-Francois,FR,71.04,clear sky,46.42,3.91,Manoir Du Bonheur
619,Eregli,TR,69.75,clear sky,37.51,34.05,Hotel Fuat Bey
620,Asau,RO,72.52,few clouds,46.43,26.4,Casa Mika Ciobanus
623,Warrington,GB,68.32,broken clouds,53.39,-2.58,Villaggio Hotel
626,Lagoa,PT,73.45,few clouds,39.05,-27.98,Casa Das Faias
627,Dongsheng,CN,67.89,clear sky,39.82,109.98,Crowne Plaza Ordos
631,Nacala,MZ,69.67,clear sky,-14.54,40.67,Nacala Plaza Business Design Hotel
633,Mitu,CO,74.03,overcast clouds,1.2,-70.17,
634,Waingapu,ID,69.87,few clouds,-9.66,120.26,Pondok Wisata Elim
637,Mgandu,TZ,61.7,clear sky,-5.95,34.13,
639,Aleksandrovsk-Sakhalinskiy,RU,61.23,overcast clouds,50.9,142.16,"The hotel ""Three Brothers"""
645,Chicama,PE,61.34,scattered clouds,-7.84,-79.15,Balihai Bungalows
647,Sheltozero,RU,67.23,light rain,61.37,35.37,The village of Vanino
648,Yambio,SS,69.33,overcast clouds,4.57,28.4,Kabash Inn
649,Wuwei,CN,70.5,few clouds,37.93,102.64,Thank Inn Chain Hotel gansu wuwei liangzhou district xiguan middle road
650,Sao Joao Del Rei,BR,73.42,clear sky,-21.14,-44.26,Solara Hotel
655,Mookane,BW,62.46,few clouds,-23.69,26.66,
656,Anchorage,US,61.99,scattered clouds,61.22,-149.9,Hotel Captain Cook
658,Hirna,ET,63.07,light rain,9.22,41.1,Seid Ali
665,Chapais,CA,68.9,broken clouds,49.78,-74.85,Hôtel Opémiska
670,Gamba,GA,69.06,overcast clouds,-2.65,10.0,
671,Rio Grande,BR,63.95,broken clouds,-32.03,-52.1,Hotel Atlântico Rio Grande
672,Pionerskiy,RU,64.24,broken clouds,54.95,20.23,Baltica Pension
675,Makhinjauri,GE,66.06,scattered clouds,41.67,41.69,Batumi World Palace Hotel
676,Katobu,ID,70.92,scattered clouds,-4.94,122.53,La Ode Husein
677,Pangai,TO,74.23,overcast clouds,-19.8,-174.35,Ha'apai Beach Resort
678,Bereznik,RU,67.8,broken clouds,62.86,42.71,coastal Hotel
679,Enkhuizen,NL,68.97,scattered clouds,52.7,5.28,Hotel De Koepoort
680,Concarneau,FR,66.99,few clouds,47.88,-3.92,Brit Hotel de L' Océan
682,Baoro,CF,67.5,light rain,5.67,15.97,
684,Shaunavon,CA,72.25,scattered clouds,49.65,-108.42,Bear's Den Lodge
685,Mascote,BR,70.75,scattered clouds,-15.56,-39.3,Fazenda Novo ORIENTE
689,Nelidovo,RU,63.16,few clouds,56.22,32.78,"Tsentral'naya, Gostinitsa"
690,Piranshahr,IR,69.75,clear sky,36.7,45.14,مسافر خانه سعدی
697,Gull Lake,CA,72.54,clear sky,50.1,-108.48,Campbell's Accommodations
698,Fushun,CN,69.51,broken clouds,41.86,123.92,Love Theme Apartment Xinhua Branch
700,Hereford,GB,68.05,overcast clouds,52.06,-2.71,The Green Dragon Hotel
708,Mizan Teferi,ET,61.83,light rain,6.98,35.58,Hotel Salayish - ሳላይሽ ሆቴል
